[
  {
    "title": "Westside Park",
    "lat": 41.724914,
    "lng": -93.622134
  },
  {
    "title": "Water Tower",
    "lat": 41.733083,
    "lng": -93.61008
  },
  {
    "title": "Sawgrass",
    "lat": 41.724914,
    "lng": -93.622134
  },
  {
    "title": "Prairie Ridge Sports Complex",
    "lat": 41.724914,
    "lng": -93.622134
  },
  {
    "title": "Hawkeye Park",
    "lat": 41.735015,
    "lng": -93.606999
  },
  {
    "title": "Sprint Store",
    "lat": 41.70732,
    "lng": -93.582021
  },
  {
    "title": "St. Anne's Episcopal Church",
    "lat": 41.732528,
    "lng": -93.628834
  }
]
